,City,Cloudiness,Country,Date,Humidity,Lat,Lng,Max_Temp,Wind_Speed
0,Lorengau,50,PG,1578373923,73,-2.02,147.27,84.87,8.63
1,Marawi,100,PH,1578373924,81,8.0,124.29,82.0,11.99
2,Sucua,48,EC,1578373924,97,-2.46,-78.17,64.62,2.68
3,Puerto Ayora,25,EC,1578373924,82,-0.74,-90.35,75.99,1.01
4,Mataura,84,NZ,1578373924,70,-46.19,168.86,57.0,11.99
5,Severo-Kurilsk,100,RU,1578373924,78,50.68,156.12,22.03,14.85
6,Jamestown,0,AU,1578373924,27,-33.21,138.6,86.9,1.88
7,Obo,91,CF,1578373925,25,5.39,26.49,73.98,7.78
8,Salalah,0,OM,1578373925,69,17.01,54.1,77.0,5.82
9,Homer,75,US,1578373925,66,59.64,-151.54,15.8,6.93
10,Estepona,75,ES,1578373925,76,36.43,-5.15,57.2,14.99
11,Port Elizabeth,1,US,1578373925,51,39.31,-74.98,42.8,6.93
12,Lompoc,1,US,1578373733,65,34.64,-120.46,59.0,6.93
13,Butaritari,100,KI,1578373926,76,3.07,172.79,85.3,16.24
14,Kaitangata,0,NZ,1578373926,58,-46.28,169.85,55.99,14.0
15,Albany,90,US,1578373926,55,42.65,-73.75,36.0,10.29
16,Hermanus,97,ZA,1578373926,82,-34.42,19.24,66.99,14.0
17,Kodino,94,RU,1578373926,95,63.72,39.64,26.87,6.93
18,Clyde River,90,CA,1578373926,75,70.47,-68.59,-18.4,10.29
19,East London,90,ZA,1578373886,100,-33.02,27.91,68.0,4.7
20,Barrow,0,AR,1578373927,74,-38.31,-60.23,54.63,8.12
21,Georgetown,63,GY,1578373927,88,6.8,-58.16,73.4,4.7
22,Ushuaia,75,AR,1578373915,71,-54.81,-68.31,53.6,5.82
23,Ancud,75,CL,1578373928,87,-41.87,-73.83,53.6,12.75
24,Emmett,75,US,1578373928,80,43.87,-116.5,39.0,9.17
25,Bambous Virieux,40,MU,1578373928,94,-20.34,57.76,82.0,4.29
26,Geraldton,40,CA,1578373928,84,49.72,-86.95,5.0,5.82
27,Maymyo,20,MM,1578373928,68,22.03,96.47,71.6,4.7
28,Castro,75,CL,1578373928,87,-42.48,-73.76,53.6,12.75
29,Punta Arenas,90,CL,1578373929,81,-53.16,-70.91,51.8,10.29
30,Egvekinot,93,RU,1578373929,75,66.32,-179.17,-12.21,3.06
31,Ribeira Grande,100,PT,1578373929,94,38.52,-28.7,61.21,16.26
32,Lebu,40,ET,1578373709,71,8.96,38.73,59.74,2.59
33,Bluff,100,AU,1578373929,37,-23.58,149.07,89.31,12.19
34,Bathsheba,40,BB,1578373929,69,13.22,-59.52,78.8,13.87
35,Bandarbeyla,47,SO,1578373930,80,9.49,50.81,78.91,18.88
36,Narsaq,8,GL,1578373930,34,60.91,-46.05,1.4,9.17
37,Port Alfred,84,ZA,1578373930,97,-33.59,26.89,70.0,1.01
38,Rikitea,21,PF,1578373930,78,-23.12,-134.97,77.16,15.32
39,Fairbanks,20,US,1578373930,95,64.84,-147.72,-22.0,0.38
40,Mount Isa,75,AU,1578373930,20,-20.73,139.49,102.2,8.05
41,LOS ALGARROBOS,50,EC,1578373930,74,-3.25,-79.94,75.27,2.19
42,Mandalgovi,0,MN,1578373683,70,45.76,106.27,12.38,1.77
43,Pokosnoye,10,RU,1578373931,83,55.53,101.05,16.38,5.21
44,Kapaa,75,US,1578373931,88,22.08,-159.32,78.8,16.11
45,Busselton,0,AU,1578373817,11,-33.64,115.35,95.0,15.03
46,Torbay,90,CA,1578373931,92,47.66,-52.73,25.0,2.24
47,Rawson,31,AR,1578373931,57,-43.3,-65.11,62.35,13.67
48,Hambantota,20,LK,1578373797,83,6.12,81.12,84.2,14.99
49,Charters Towers,82,AU,1578373932,46,-20.07,146.27,88.88,17.47
50,Baneh,0,IR,1578373932,64,35.99,45.88,32.0,3.36
51,Khatanga,96,RU,1578373932,92,71.98,102.47,4.84,10.83
52,Tuktoyaktuk,5,CA,1578373932,66,69.44,-133.03,-29.2,9.17
53,Hualmay,35,PE,1578373932,89,-11.1,-77.61,66.02,3.67
54,Cidreira,59,BR,1578373933,85,-30.17,-50.22,74.26,11.14
55,Hilo,20,US,1578373933,57,19.71,-155.08,78.8,5.82
56,Namatanai,89,PG,1578373933,65,-3.66,152.44,86.45,1.48
57,Smolenka,99,PL,1578373933,94,54.15,22.76,33.01,6.17
58,Keflavik,90,IS,1578373933,97,64.0,-22.56,32.0,29.97
59,Luderitz,58,NA,1578373933,82,-26.65,15.16,60.8,18.34
60,Katsuura,75,JP,1578373933,87,33.93,134.5,51.8,17.22
61,San Cristobal,100,HN,1578373933,98,14.68,-86.92,59.47,3.22
62,Ahipara,99,NZ,1578373933,68,-35.17,173.16,62.15,20.4
63,Westport,1,US,1578373933,48,41.14,-73.36,43.0,8.05
64,Adrar,6,DZ,1578373933,48,27.87,-0.29,41.0,13.87
65,Bredasdorp,100,ZA,1578373934,68,-34.53,20.04,68.0,9.17
66,Roebourne,66,AU,1578373934,37,-20.77,117.15,95.43,16.37
67,Dunedin,7,NZ,1578373934,72,-45.87,170.5,52.23,19.62
68,Kendal,85,ID,1578373934,95,-6.92,110.2,84.99,10.31
69,Kahului,20,US,1578373934,65,20.89,-156.47,77.0,12.75
70,La Asuncion,37,AR,1578373935,85,-26.05,-65.39,55.62,0.83
71,Faanui,85,PF,1578373935,80,-16.48,-151.75,81.23,18.05
72,Esperance,0,AU,1578373935,7,-33.86,121.89,104.0,14.99
73,Fredericton,90,CA,1578373935,92,45.97,-66.65,16.0,3.36
74,Coahuayana,10,MX,1578373936,45,18.62,-100.35,69.03,3.06
75,Powell,1,US,1578373936,64,40.16,-83.08,33.8,0.96
76,Namibe,45,AO,1578373936,81,-15.19,12.15,72.21,6.44
77,Fortuna Foothills,1,US,1578373938,32,32.66,-114.41,60.01,9.17
78,Pimentel,100,BR,1578373938,98,-3.7,-45.5,73.63,1.97
79,Saldanha,100,PT,1578373938,79,41.42,-6.55,35.28,3.2
80,Hami,0,CN,1578373938,42,42.84,93.51,26.2,1.3
81,Port Hedland,75,AU,1578373939,41,-20.31,118.58,95.0,26.4
82,Avarua,20,CK,1578373764,83,-21.21,-159.78,80.6,3.36
83,La Brea,20,TT,1578373939,94,10.24,-61.62,75.0,12.39
84,Waddan,8,LY,1578373939,81,29.16,16.14,41.16,6.38
85,Hoi An,40,VN,1578373939,65,15.88,108.33,82.4,4.7
86,Colares,17,PT,1578373939,100,38.8,-9.45,46.99,2.24
87,Henties Bay,65,NA,1578373940,89,-22.12,14.28,63.0,1.99
88,Micheweni,12,TZ,1578373940,77,-4.97,39.83,83.75,9.08
89,Naze,3,NG,1578373940,78,5.43,7.07,71.71,2.17
90,La Ronge,90,CA,1578373940,70,55.1,-105.3,-5.8,11.41
91,Manaus,91,BR,1578373940,69,-3.13,-59.98,82.4,4.7
92,Bethel,1,US,1578373941,75,60.79,-161.76,-16.6,8.05
93,Balao,4,EC,1578373941,81,-2.91,-79.82,75.51,5.14
94,Meulaboh,19,ID,1578373836,70,4.14,96.13,82.11,3.78
95,Bonavista,87,CA,1578373847,83,48.65,-53.11,23.95,7.36
96,Arraial do Cabo,31,BR,1578373941,90,-22.97,-42.02,77.88,5.79
97,Osoyoos,90,CA,1578373941,80,49.03,-119.47,33.8,1.63
98,Vaini,75,IN,1578373941,83,15.34,74.49,71.6,6.93
99,Hobart,75,AU,1578373882,63,-42.88,147.33,68.0,12.75
100,Necochea,0,AR,1578373715,90,-38.55,-58.74,51.01,5.01
101,Mareeba,75,AU,1578373942,74,-16.99,145.42,86.0,6.93
102,Strezhevoy,75,RU,1578373942,79,60.73,77.6,23.0,11.18
103,Altamont,20,CA,1578373942,62,49.4,-98.5,24.8,16.11
104,Kruisfontein,100,ZA,1578373942,90,-34.0,24.73,65.98,9.08
105,Mar del Plata,85,AR,1578373942,45,-46.43,-67.52,66.72,18.03
106,Guerrero Negro,0,MX,1578373943,42,27.97,-114.04,60.26,2.84
107,Los Llanos de Aridane,40,ES,1578373943,67,28.66,-17.92,62.6,13.87
108,Atuona,55,PF,1578373943,70,-9.8,-139.03,80.98,11.56
109,Chokurdakh,0,RU,1578373943,89,70.62,147.9,-22.09,3.83
110,Petropavlovsk-Kamchatskiy,100,RU,1578373751,46,53.05,158.65,28.4,11.18
111,Assiniboia,55,CA,1578373944,89,49.63,-105.99,10.49,6.06
112,Maldonado,75,UY,1578373944,82,-34.91,-54.96,68.0,6.93
113,Upernavik,100,GL,1578373944,97,72.79,-56.15,-7.29,6.69
114,Hofn,100,IS,1578373944,96,64.25,-15.21,39.36,27.09
115,Kodiak,1,US,1578373944,80,39.95,-94.76,33.8,9.17
116,Walvis Bay,92,NA,1578373944,82,-22.95,14.51,63.0,8.05
117,Tasiilaq,100,GL,1578373944,95,65.61,-37.64,21.24,21.72
118,Veraval,90,FR,1578373945,100,49.65,0.71,46.4,6.93
119,Pangnirtung,100,CA,1578373945,90,66.15,-65.72,-36.26,4.21
120,Igarka,15,RU,1578373945,95,67.47,86.57,-1.34,8.14
121,Kushima,75,JP,1578373945,56,31.5,131.29,69.8,12.75
122,Fenoarivo,75,MG,1578373945,82,-18.93,47.44,68.0,5.82
123,Mahebourg,40,MU,1578373946,94,-20.41,57.7,82.0,2.55
124,Nikolskoye,90,RU,1578373946,96,59.7,30.79,34.0,4.47
125,Inongo,86,CD,1578373946,71,-1.93,18.29,76.6,2.08
126,Progreso,75,UY,1578373946,77,-34.68,-56.22,69.8,3.36
127,Soe,100,EE,1578373946,100,57.91,26.05,36.0,6.93
128,Darnah,44,LY,1578373946,64,32.77,22.64,54.14,23.24
129,Bawku,1,GH,1578373947,32,11.06,-0.24,67.23,7.49
130,Jizan,2,SA,1578373947,69,16.89,42.56,77.0,3.36
131,Lubango,100,AO,1578373947,76,-14.92,13.49,59.79,5.82
132,New Norfolk,75,AU,1578373715,63,-42.78,147.06,68.0,12.75
133,Oranjestad,20,AW,1578373698,83,12.52,-70.03,78.8,8.05
134,Wattegama,62,LK,1578373948,45,7.35,80.68,88.07,6.11
135,Qaanaaq,33,GL,1578373696,83,77.48,-69.36,-21.57,5.77
136,Saskylakh,72,RU,1578373948,94,71.97,114.09,0.54,9.24
137,Edd,75,ER,1578373948,75,13.93,41.69,77.81,1.5
138,Hithadhoo,100,MV,1578373948,78,-0.6,73.08,83.7,15.21
139,Gouyave,40,GD,1578373948,94,12.16,-61.73,75.2,14.99
140,Sitka,0,US,1578373787,62,37.17,-99.65,27.0,1.99
141,Leningradskiy,0,RU,1578373949,79,69.38,178.42,-9.42,13.69
142,Carnarvon,82,ZA,1578373949,52,-30.97,22.13,70.68,15.59
143,Mangaldai,40,IN,1578373949,93,26.43,92.03,62.6,8.25
144,Chimbote,1,PE,1578373950,89,-9.08,-78.59,67.87,4.07
145,Nome,90,US,1578373950,88,30.04,-94.42,64.4,6.93
146,Point Fortin,20,TT,1578373950,94,10.16,-61.68,75.0,12.39
147,Talara,0,PE,1578373950,92,-4.58,-81.27,71.24,10.76
148,Fresnillo,90,MX,1578373951,46,23.17,-102.87,50.0,3.24
149,Bredy,100,RU,1578373951,96,52.43,60.33,16.65,4.21
150,Victoria,75,BN,1578373951,70,5.28,115.24,87.8,2.24
151,Berlevag,100,NO,1578373951,74,70.86,29.09,30.2,19.46
152,Dikson,100,RU,1578373951,96,73.51,80.55,5.7,4.94
153,Portland,40,US,1578373952,85,43.66,-70.25,26.6,23.6
154,Acapulco,5,MX,1578373833,83,16.86,-99.88,77.0,4.7
155,Tazmalt,0,DZ,1578373952,81,36.39,4.4,44.6,13.87
156,Cabo San Lucas,5,MX,1578373952,88,22.89,-109.91,69.01,4.7
157,Mehamn,100,NO,1578373953,74,71.03,27.85,32.0,19.46
158,Isangel,75,VU,1578373953,78,-19.55,169.27,82.4,12.64
159,Alyangula,75,AU,1578373953,83,-13.85,136.42,82.4,8.05
160,Moctezuma,0,MX,1578373953,38,29.81,-109.68,49.51,7.34
161,Glen Allen,1,US,1578373954,86,37.67,-77.51,34.0,3.78
162,Nsanje,39,MZ,1578373954,70,-16.92,35.26,83.7,1.28
163,Nemuro,20,JP,1578373954,70,43.32,145.57,32.0,6.93
164,Malanje,98,AO,1578373954,95,-9.54,16.35,67.62,0.56
165,Solnechnyy,0,RU,1578373954,93,50.72,136.64,6.66,2.62
166,Margate,75,AU,1578373954,63,-43.03,147.26,68.0,12.75
167,Ouadda,100,CF,1578373955,28,8.07,22.4,71.15,6.2
168,Salym,53,RU,1578373955,94,60.06,71.48,4.82,5.21
169,Cape Town,96,ZA,1578373917,72,-33.93,18.42,70.0,2.24
170,Lavrentiya,94,RU,1578373955,98,65.58,-170.99,-8.23,3.27
171,Maniitsoq,100,GL,1578373955,99,65.42,-52.9,0.41,14.94
172,Azanka,1,RU,1578373956,90,58.04,64.79,8.38,3.09
173,Baruun-Urt,0,MN,1578373956,86,46.68,113.28,7.39,6.13
174,Karoi,90,ZW,1578373956,81,-16.82,29.68,72.16,7.18
175,Ostrovnoy,16,RU,1578373956,95,68.05,39.51,9.81,8.16
176,Marystown,98,CA,1578373957,89,47.17,-55.16,23.86,7.2
177,Vardo,1,US,1578373957,59,39.62,-77.74,39.2,4.7
178,Pathalgaon,0,IN,1578373957,33,22.56,83.46,71.22,3.6
179,Lakatoro,100,VU,1578373958,80,-16.11,167.42,82.44,14.32
180,Ugoofaaru,81,MV,1578373958,77,5.67,73.0,83.07,20.22
181,Cururupu,100,BR,1578373958,97,-1.82,-44.87,73.9,1.88
182,Muntilan,40,ID,1578373958,83,-7.58,110.28,84.99,3.38
183,Alta Floresta,96,BR,1578373958,97,-9.87,-56.08,71.15,2.75
184,Rundu,96,NA,1578373958,100,-17.91,19.77,68.0,4.7
185,Rio Grande,65,BR,1578373660,95,-32.03,-52.1,71.01,1.01
186,Morondava,0,MG,1578373959,57,-20.3,44.28,90.73,1.45
187,Vila Franca do Campo,75,PT,1578373959,93,37.72,-25.43,64.4,8.05
188,Zheleznogorsk,0,RU,1578373959,85,56.25,93.53,12.2,1.74
189,Kavaratti,20,IN,1578373959,70,10.57,72.64,84.2,4.7
190,Amalapuram,19,IN,1578373960,69,16.58,82.0,77.0,14.99
191,Dutlwe,100,BW,1578373960,63,-23.98,23.93,73.51,8.08
192,Konevo,95,BG,1578373960,48,41.67,25.61,37.0,8.99
193,Urucara,97,BR,1578373865,97,-2.54,-57.76,74.07,2.1
194,Saint George,20,GR,1578373961,63,39.45,22.34,33.8,4.7
195,Keti Bandar,0,PK,1578373961,47,24.14,67.45,67.91,18.77
196,Abeche,0,TD,1578373961,23,13.83,20.83,67.48,10.04
197,Nouakchott,98,MR,1578373961,27,18.08,-15.98,61.57,16.26
198,Tupanatinga,33,BR,1578373865,82,-8.75,-37.34,72.48,4.29
199,Am Timan,17,TD,1578373962,32,11.04,20.28,69.44,3.83
200,Saint-Philippe,90,CA,1578373962,92,45.36,-73.48,30.2,4.7
201,Waingapu,80,ID,1578373963,76,-9.65,120.26,84.06,25.52
202,Ilulissat,100,GL,1578373963,63,69.22,-51.1,-7.6,17.22
203,Constitucion,99,MX,1578373963,31,23.99,-104.67,52.41,4.07
204,Pinsk,91,BY,1578373963,93,52.11,26.1,28.54,5.23
205,Tautira,40,PF,1578373964,74,-17.73,-149.15,84.2,11.41
206,Haines Junction,100,CA,1578373964,99,60.75,-137.51,-3.57,1.77
207,Chulym,100,RU,1578373964,95,55.09,80.97,13.89,9.31
208,Tiksi,100,RU,1578373965,86,71.64,128.87,-3.32,11.88
209,Ulladulla,59,AU,1578373965,61,-35.36,150.48,80.6,12.75
210,Honiara,75,SB,1578373965,56,-9.43,159.96,93.2,14.99
211,Magdagachi,18,RU,1578373965,94,53.45,125.8,-3.62,3.22
212,Mocuba,90,MZ,1578373966,85,-16.84,36.99,79.99,2.66
213,Faya,0,SA,1578373966,81,18.39,42.45,57.2,11.41
214,Sorland,75,NO,1578373966,93,67.67,12.69,42.8,23.04
215,Longyearbyen,78,NO,1578373966,61,78.22,15.63,12.2,31.09
216,Purpe,15,RU,1578373967,90,64.48,76.69,5.0,14.63
217,Marondera,75,ZW,1578373967,88,-18.19,31.55,68.0,8.05
218,Thompson,90,CA,1578373964,83,55.74,-97.86,-5.8,9.17
219,Lima,20,PE,1578373881,83,-12.06,-77.04,71.6,11.41
220,Voh,91,NC,1578373968,77,-20.95,164.69,77.67,19.57
221,Yellowknife,75,CA,1578373968,67,62.45,-114.38,-23.8,5.82
222,Sao Filipe,98,CV,1578373968,66,14.9,-24.5,68.05,18.88
223,Huai Thalaeng,36,TH,1578373969,43,15.0,102.65,91.4,5.82
224,Talcahuano,42,CL,1578373969,76,-36.72,-73.12,55.4,8.05
225,Ponta do Sol,0,BR,1578373969,92,-20.63,-46.0,65.73,0.89
226,Bograd,75,RU,1578373969,84,54.22,90.86,5.0,4.43
227,Znamenskoye,96,RU,1578373969,96,57.13,73.82,13.17,3.8
228,Hasaki,75,JP,1578373970,61,35.73,140.83,48.2,6.93
229,North Platte,1,US,1578373767,73,41.12,-100.77,28.0,6.93
230,College,20,US,1578373970,65,64.86,-147.8,-22.0,1.88
231,Fort Nelson,75,CA,1578373970,74,58.81,-122.69,-27.4,1.74
232,Victoria,75,BN,1578373971,70,5.28,115.24,87.8,2.24
233,Ambilobe,10,MG,1578373971,64,-13.19,49.05,87.64,1.52
234,Huarmey,9,PE,1578373971,86,-10.07,-78.15,66.87,1.72
235,Bowen,40,AU,1578373971,66,-20.01,148.25,88.0,12.75
236,Nha Trang,40,VN,1578373971,70,12.24,109.19,84.2,11.41
237,Oiso,75,JP,1578373972,65,35.32,139.28,50.0,9.17
238,Newcastle,100,AU,1578373706,62,-32.93,151.78,93.99,10.29
239,Cacahoatan,5,MX,1578373972,83,14.98,-92.17,75.2,6.93
240,Kenora,90,CA,1578373972,85,49.76,-94.48,21.2,9.17
241,Standerton,100,ZA,1578373972,96,-26.94,29.24,61.0,4.43
242,Lagoa,0,PT,1578373973,93,37.14,-8.45,52.0,3.36
243,Arkhipo-Osipovka,100,RU,1578373973,88,44.37,38.53,37.67,4.38
244,Balikpapan,40,ID,1578373973,66,-1.24,116.86,87.8,10.29
245,Cassilandia,100,BR,1578373973,93,-19.11,-51.73,72.19,4.47
246,Uige,99,AO,1578373973,96,-7.61,15.06,68.86,2.55
247,Taltal,1,CL,1578373974,89,-25.41,-70.49,59.9,2.19
248,Port Lincoln,0,AU,1578373974,49,-34.72,135.86,74.01,10.69
249,Vanavara,99,RU,1578373974,94,60.35,102.28,9.54,7.34
250,Mitzic,67,GA,1578373974,91,0.78,11.55,71.01,0.74
251,Dejen,44,ET,1578373974,44,10.16,38.15,74.25,1.68
252,Vestmannaeyjar,100,IS,1578373974,89,63.44,-20.27,41.54,35.95
253,Pochutla,0,MX,1578373975,86,15.74,-96.47,73.0,6.82
254,Balagansk,8,RU,1578373975,85,54.01,103.05,13.66,3.94
255,Tilaran,54,CR,1578373975,65,10.47,-84.97,78.8,10.29
256,Stettler,25,CA,1578373975,88,52.32,-112.71,5.0,1.01
257,Airai,51,TL,1578373975,49,-8.93,125.41,83.25,5.77
258,Thinadhoo,100,MV,1578373688,75,0.53,72.93,83.77,16.89
259,Wilmington,1,US,1578373811,47,39.75,-75.55,39.99,6.62
260,Ariquemes,100,BR,1578373976,98,-9.91,-63.03,73.6,1.74
261,Tilichiki,91,RU,1578373976,95,60.47,166.1,3.22,6.8
262,Sibolga,95,ID,1578373976,48,1.74,98.78,90.39,3.36
263,Batagay-Alyta,100,RU,1578373976,83,67.8,130.41,-10.03,3.71
264,Saint-Francois,90,FR,1578373977,100,46.42,3.91,41.0,3.36
265,Brae,67,GB,1578373977,87,60.4,-1.35,46.4,23.04
266,Ewa Beach,75,US,1578373977,83,21.32,-158.01,78.8,6.93
267,Arti,97,RU,1578373977,97,56.43,58.53,10.26,2.1
268,Araceli,37,PH,1578373977,79,10.55,119.99,81.66,15.95
269,Norman Wells,5,CA,1578373978,64,65.28,-126.83,-43.6,2.44
270,Panaba,0,MX,1578373978,78,21.28,-88.27,67.82,6.08
271,Palmer,0,AU,1578373978,23,-34.85,139.16,89.01,12.3
272,Santa Cruz,74,BR,1578373978,95,-6.22,-36.02,70.9,3.06
273,Churapcha,100,RU,1578373978,96,62.0,132.43,5.31,5.17
274,Kyren,0,RU,1578373978,60,51.68,102.13,14.07,5.06
275,Keetmanshoop,12,NA,1578373978,49,-26.57,18.15,75.97,5.21
276,Ibra,0,OM,1578373978,62,22.69,58.55,72.07,6.51
277,Sampit,83,ID,1578373978,49,-2.54,112.95,92.5,3.33
278,Ust-Tsilma,96,RU,1578373979,95,65.44,52.15,10.18,4.76
279,Zabid,0,YE,1578373979,46,14.2,44.5,63.59,3.83
280,Molepolole,93,BW,1578373979,73,-24.41,25.52,73.4,4.7
281,Coquimbo,0,CL,1578373979,68,-29.95,-71.34,64.4,3.36
282,Inhambane,40,MZ,1578373979,94,-23.87,35.38,77.0,5.99
283,Hamilton,20,CA,1578373730,79,43.26,-79.87,32.0,6.93
284,Tuatapere,97,NZ,1578373980,70,-46.13,167.69,57.0,11.99
285,Yuli,23,CN,1578373980,53,24.82,106.77,69.64,4.99
286,Jinji,56,CN,1578373980,64,22.16,112.49,77.0,2.77
287,Pahrump,1,US,1578373980,44,36.21,-115.98,46.0,6.93
288,Mildura,0,AU,1578373980,23,-34.18,142.16,89.01,10.29
289,Antofagasta,0,CL,1578373981,88,-23.65,-70.4,66.2,2.24
290,Sawtell,13,AU,1578373981,69,-30.38,153.1,87.8,18.34
291,Tuy Hoa,92,VN,1578373981,84,13.08,109.3,76.19,14.74
292,Zhezkazgan,90,KZ,1578373974,92,47.8,67.71,17.6,4.47
293,Tazovskiy,48,RU,1578373981,92,67.47,78.7,1.08,14.09
294,Gariaband,0,IN,1578373982,33,20.63,82.06,79.59,1.59
295,George Town,20,MY,1578373982,55,5.42,100.33,91.4,6.93
296,Kupang,75,ID,1578373983,79,-10.16,123.6,84.2,14.99
297,Kudahuvadhoo,83,MV,1578373983,75,2.67,72.89,83.12,14.38
298,Pevek,0,RU,1578373983,66,69.7,170.27,-8.55,6.71
299,Manuk Mangkaw,100,PH,1578373984,81,4.8,119.85,78.28,8.97
300,Souillac,90,FR,1578373985,93,45.6,-0.6,44.6,3.36
301,Morales,90,GT,1578373985,94,15.47,-88.84,69.8,2.04
302,Gaoua,0,BF,1578373985,25,10.33,-3.18,62.67,4.97
303,Bahia Honda,71,CU,1578373986,78,22.9,-83.16,65.48,7.65
304,Pisco,64,PE,1578373986,88,-13.71,-76.2,69.8,9.17
305,Moyale,2,ET,1578373986,54,3.52,39.05,79.32,8.7
306,Alexandria,0,RO,1578373775,79,43.97,25.33,25.0,3.49
307,Temecula,1,US,1578373817,30,33.49,-117.15,64.4,3.36
308,Leh,100,IN,1578373987,70,34.16,77.58,8.92,2.84
309,Meadow Lake,0,CA,1578373718,94,54.13,-108.44,-10.14,4.92
310,Te Anau,82,NZ,1578373987,81,-45.41,167.72,49.53,5.66
311,Broome,23,GB,1578373987,93,52.47,1.45,42.01,9.17
312,Morant Bay,20,JM,1578373988,78,17.88,-76.41,78.8,4.7
313,Aklavik,5,CA,1578373988,66,68.22,-135.01,-32.8,6.02
314,Ishigaki,75,JP,1578373988,83,24.34,124.16,75.2,11.41
315,Erenhot,0,CN,1578373989,77,43.65,111.97,14.31,2.26
316,Buala,48,SB,1578373989,73,-8.15,159.59,84.34,9.55
317,Clarksburg,1,US,1578373989,59,39.24,-77.28,39.2,4.7
318,Tabou,0,CI,1578373989,79,4.42,-7.36,67.24,3.6
319,Adre,23,TD,1578373989,26,13.47,22.2,64.85,9.78
320,Yuzhno-Kurilsk,90,RU,1578373989,82,44.03,145.86,27.84,26.49
321,Jaca,90,ES,1578373989,100,42.57,-0.55,35.6,3.36
322,Gornyy,100,RU,1578373989,98,51.76,48.54,30.99,3.58
323,Rapid Valley,1,US,1578373989,53,44.06,-103.15,32.0,6.93
324,Gazli,75,UZ,1578373990,41,40.13,63.45,34.11,1.45
325,Provideniya,91,RU,1578373990,91,64.42,-173.23,-10.41,1.74
326,Devonport,88,AU,1578373990,61,-41.18,146.36,77.0,8.01
327,Nouadhibou,88,MR,1578373990,72,20.93,-17.03,59.0,25.28
328,Cayenne,75,GF,1578373990,94,4.94,-52.33,73.4,2.24
329,Atar,2,MR,1578373991,17,20.52,-13.05,48.18,8.03
330,Washington DC.,20,US,1578373855,69,38.9,-77.04,39.99,5.82
331,Doha,0,QA,1578373991,63,25.29,51.53,64.4,9.17
332,Mujiayingzi,78,CN,1578373991,35,42.12,118.78,24.62,17.83
333,Atherton,75,AU,1578373992,74,-17.27,145.48,86.0,6.93
334,Sao Jose da Coroa Grande,18,BR,1578373992,75,-8.9,-35.15,79.57,9.75
335,Nishihara,75,JP,1578373992,65,35.74,139.53,48.99,9.17
336,Manokwari,100,ID,1578373993,97,-0.87,134.08,73.85,5.08
337,Nefteyugansk,75,RU,1578373993,92,61.09,72.61,15.8,13.42
338,Molodizhne,100,UA,1578373993,94,45.01,34.06,33.3,17.22
339,Valley City,90,US,1578373993,85,46.92,-98.0,23.0,16.11
340,Hobyo,100,SO,1578373993,71,5.35,48.53,81.48,16.35
341,Cumbernauld,72,GB,1578373993,81,55.95,-3.99,46.99,13.87
342,Douchy-les-Mines,30,FR,1578373993,100,50.3,3.39,44.01,5.82
343,Sinnamary,93,GF,1578373993,80,5.38,-52.96,78.58,14.72
344,Dingle,71,PH,1578373994,82,11.0,122.67,80.15,10.51
345,Sola,65,TZ,1578373994,75,-3.17,33.8,71.47,8.34
346,Mpwapwa,34,TZ,1578373994,79,-6.35,36.49,74.77,2.19
347,Hauterive,90,CA,1578373994,72,49.18,-68.27,17.6,6.93
348,Slave Lake,90,CA,1578373994,76,55.28,-114.77,-4.0,2.24
349,Sangmelima,38,CM,1578373994,80,2.93,11.98,64.74,2.39
350,Cairns,75,AU,1578373847,74,-16.92,145.77,86.0,6.93
351,Fortuna,90,US,1578373994,100,40.6,-124.16,43.0,8.05
352,Kavieng,91,PG,1578373732,68,-2.57,150.8,85.73,6.76
353,Coihaique,90,CL,1578373995,81,-45.58,-72.07,51.8,3.36
354,Kara-Tyube,100,RU,1578373995,91,44.63,45.44,39.27,13.13
355,Codrington,40,AU,1578373995,43,-28.95,153.24,91.4,13.87
356,Loikaw,0,MM,1578373995,39,19.67,97.21,75.92,5.3
357,Zhigansk,100,RU,1578373996,95,66.77,123.37,0.0,14.85
358,Bichura,7,RU,1578373996,88,50.59,107.6,7.72,2.1
359,Gamba,69,CN,1578373996,30,28.28,88.52,21.11,5.91
360,Kingaroy,0,AU,1578373996,26,-26.54,151.84,95.0,9.17
361,Ocampo,93,MX,1578373996,45,27.32,-102.4,48.67,4.36
362,Roncq,27,FR,1578373996,93,50.75,3.12,44.01,8.05
363,Sao Joao da Barra,100,BR,1578373996,89,-21.64,-41.05,77.09,12.19
364,Valparaiso,1,US,1578373996,74,41.47,-87.06,34.0,6.93
365,Andover,20,US,1578373796,90,45.23,-93.29,33.8,12.75
366,Fougamou,24,GA,1578373996,97,-1.22,10.59,74.05,0.98
367,Bulawayo,12,ZW,1578373996,50,-20.16,28.59,77.09,10.07
368,Nicoya,93,CR,1578373997,65,10.15,-85.45,78.8,10.29
369,Tevaitoa,24,PF,1578373997,81,-16.78,-151.5,81.79,19.91
370,Vytegra,100,RU,1578373997,98,61.01,36.45,31.42,6.67
371,Baghdad,0,IQ,1578373997,87,33.3,44.38,42.8,2.24
372,Ripoll,40,ES,1578373997,75,42.2,2.19,39.99,1.12
373,Houma,100,CN,1578373997,99,35.63,111.36,32.58,5.06
374,West Bay,90,CA,1578373997,100,49.34,-123.21,43.0,2.24
375,Cherskiy,0,RU,1578373997,74,68.75,161.3,-17.45,6.4
376,Umea,93,SE,1578373997,93,63.83,20.26,37.4,10.29
377,Ponta Delgada,75,PT,1578373998,93,37.73,-25.67,64.4,8.05
378,Mount Vernon,1,US,1578373998,74,38.73,-77.1,39.2,1.41
379,Cap Malheureux,40,MU,1578373998,83,-19.98,57.61,84.2,3.36
380,Jaisalmer,85,IN,1578373998,73,26.91,70.91,59.36,12.57
381,Ivanivka,45,UA,1578373998,84,46.71,34.54,29.46,15.39
382,Nioro,75,GM,1578373998,19,13.79,-15.05,60.49,9.31
383,Dubbo,79,AU,1578373998,22,-32.25,148.6,98.6,13.87
384,Sagaing,20,MM,1578373998,68,21.88,95.98,71.6,4.7
385,Nong Khai,0,TH,1578373998,51,17.88,102.75,84.2,4.7
386,Ayia Galini,75,GR,1578373999,87,35.1,24.68,48.2,34.45
387,Alugan,97,PH,1578373999,84,12.22,125.48,79.61,9.95
388,Yar-Sale,98,RU,1578373999,84,66.83,70.83,8.06,14.88
389,Donauworth,50,DE,1578373999,100,48.7,10.8,34.0,3.36
390,Agadir,17,MA,1578373707,87,30.42,-9.58,44.6,8.05
391,Iqaluit,20,CA,1578373999,61,63.75,-68.52,-23.8,14.99
392,Oranjemund,85,ZA,1578374000,78,-28.55,16.43,63.21,12.57
393,Mnogovershinnyy,64,RU,1578374000,81,53.94,139.92,5.81,6.13
394,Fethiye,75,TR,1578374000,87,36.62,29.12,50.0,6.93
395,Tacuarembo,17,UY,1578373706,50,-31.73,-55.98,61.29,9.57
396,Tucurui,100,BR,1578374001,96,-3.77,-49.67,73.63,3.87
397,Talaya,75,RU,1578374001,92,55.79,84.89,19.99,6.71
398,San Patricio,1,PY,1578374001,95,-26.98,-56.83,68.92,4.36
399,Warri,92,NG,1578374001,78,5.52,5.75,73.06,1.66
400,Santa Vitoria,100,BR,1578374001,97,-7.82,-67.03,73.27,2.53
401,Houlton,90,US,1578374001,78,46.13,-67.84,15.8,5.82
402,Finschhafen,91,PG,1578374001,75,-6.6,147.85,84.9,10.65
403,Jiaozuo,100,CN,1578374002,66,35.21,113.25,41.29,8.97
404,Yulara,100,AU,1578374002,35,-25.24,130.99,89.6,9.17
405,Changji,100,CN,1578374002,95,32.07,116.17,39.07,19.17
406,Port Macquarie,61,AU,1578374002,58,-31.43,152.91,88.0,16.11
407,Pervomayskiy,19,RU,1578374002,95,53.24,40.29,20.28,0.54
408,Lokoja,1,NG,1578374002,31,7.8,6.74,71.37,2.1
409,Kamenka,0,MD,1578374002,89,48.03,28.7,21.99,2.93
410,Chuy,21,UY,1578373739,86,-33.69,-53.46,64.74,5.75
411,Sheridan,20,US,1578373809,34,39.65,-105.03,42.8,9.17
412,Saint-Leu,20,RE,1578374003,78,-21.15,55.28,86.0,6.93
413,Manavalakurichi,20,IN,1578374003,70,8.13,77.3,86.0,5.82
414,The Valley,20,AI,1578374003,69,18.22,-63.06,78.01,4.7
415,Saint-Joseph,28,FR,1578374003,86,43.56,6.97,48.2,3.36
416,Champerico,5,MX,1578374003,88,16.38,-93.6,62.6,3.36
417,Izmalkovo,30,RU,1578374004,90,52.69,37.97,21.2,1.63
418,Itarema,51,BR,1578374004,94,-2.92,-39.92,75.6,2.39
419,Boguchany,13,RU,1578374004,94,58.38,97.46,13.15,3.53
420,Bayonet Point,1,US,1578374004,93,28.33,-82.68,51.8,3.36
421,Reading,1,US,1578374004,44,40.34,-75.93,39.2,6.93
422,Vestmanna,100,FO,1578374004,93,62.16,-7.17,41.0,29.97
423,Taksimo,16,RU,1578374004,93,56.36,114.84,-5.42,2.24
424,Celestun,14,MX,1578374004,73,20.87,-90.4,72.79,15.12
425,Yarmouth,90,CA,1578374004,92,43.84,-66.12,24.01,11.41
426,Lithakia,20,GR,1578374004,51,37.72,20.83,32.0,19.84
427,Butembo,78,CD,1578374005,69,0.12,29.29,69.04,2.01
428,De-Kastri,0,RU,1578374005,79,51.48,140.77,13.77,4.32
429,Manasa,0,IN,1578374005,40,24.48,75.27,71.53,6.6
430,Sire,4,ET,1578374005,65,8.28,39.49,70.23,11.03
431,Husavik,28,CA,1578374005,72,50.56,-96.99,21.99,17.0
432,Marsabit,3,KE,1578374005,59,2.34,37.99,79.65,22.7
433,Beroroha,0,MG,1578374005,58,-21.68,45.17,84.99,6.4
434,Dudinka,40,RU,1578374006,84,69.41,86.18,8.6,20.13
435,Chapais,90,CA,1578374006,84,49.78,-74.86,6.8,3.36
436,Le Port,72,FR,1578374006,85,42.87,1.37,44.01,5.99
437,Areosa,84,PT,1578374006,86,41.72,-8.86,46.0,8.05
438,Daru,84,PG,1578374006,67,-9.07,143.21,85.93,7.14
439,Talnakh,40,RU,1578374006,84,69.49,88.39,8.6,20.13
440,Tocopilla,0,CL,1578374006,70,-22.09,-70.2,54.32,6.55
441,Bulungu,100,CD,1578374006,82,-4.54,18.6,74.73,2.24
442,Barguzin,92,RU,1578374006,95,53.62,109.63,3.7,5.68
443,Whitefish,90,US,1578373754,86,48.41,-114.33,35.01,8.05
444,Royan,90,FR,1578374007,93,45.62,-1.03,53.6,3.36
445,Hailar,73,CN,1578374007,95,49.2,119.7,1.0,1.25
446,Mahbubnagar,1,IN,1578374007,51,16.74,77.99,81.07,6.58
447,Reims,90,FR,1578374007,93,49.26,4.03,44.6,4.7
448,Sur,30,OM,1578374007,63,22.57,59.53,73.29,17.36
449,Hinton,100,CA,1578374007,88,53.4,-117.57,8.17,3.96
450,Junction City,1,US,1578374008,69,39.03,-96.83,35.01,6.93
451,Praia,0,BR,1578374008,88,-20.25,-43.81,71.6,3.36
452,Mantiquil,75,PH,1578374008,66,9.17,123.05,86.0,9.17
453,Lata,100,IN,1578374008,98,30.78,78.62,20.93,8.5
454,Flinders,42,AU,1578374008,61,-34.58,150.85,82.99,12.75
455,North Myrtle Beach,1,US,1578374008,87,33.83,-78.68,46.99,2.64
456,Barth,20,DE,1578374008,89,54.37,12.73,37.0,4.7
457,Zalantun,82,CN,1578374008,82,48.0,122.72,14.34,3.94
458,Raudeberg,40,NO,1578374009,81,61.99,5.14,46.4,20.8
459,Bang Saphan,40,TH,1578374009,66,11.21,99.51,87.8,3.36
460,Russell,1,US,1578374009,68,38.9,-98.86,30.0,8.05
461,Ambon,90,FR,1578374009,100,47.55,-2.56,53.01,2.24
462,Bulgan,0,MN,1578374009,76,48.81,103.53,7.54,3.15
463,Iralaya,5,HN,1578374010,77,15.0,-83.23,80.06,17.34
464,Waipawa,83,NZ,1578374010,65,-39.94,176.59,59.0,1.01
465,Kokopo,68,PG,1578374010,69,-4.34,152.27,85.77,5.68
466,Vila Velha,75,BR,1578374010,78,-3.71,-38.6,86.0,6.93
467,Sept-Iles,90,CA,1578373975,65,50.2,-66.38,5.0,11.41
468,Luanda,75,AO,1578374011,88,-8.83,13.24,78.8,5.82
469,Olinda,75,AU,1578374011,77,-37.84,145.39,71.01,16.11
470,Diego de Almagro,0,CL,1578374011,83,-26.39,-70.05,52.74,1.39
471,Jorpeland,69,NO,1578374011,93,59.02,6.04,45.0,4.7
472,Tres Picos,0,MX,1578374011,73,16.23,-93.58,64.58,8.23
473,Tezu,89,IN,1578374011,39,27.93,96.16,66.52,2.73
474,Puerto Escondido,0,MX,1578374011,53,15.86,-97.07,69.01,4.56
475,Florianopolis,20,BR,1578373840,94,-27.6,-48.55,78.01,12.75
476,Bedele,22,ET,1578374011,53,8.46,36.35,72.03,0.56
477,Kiunga,77,PG,1578374011,57,-6.12,141.3,91.47,3.53
478,Laguna,90,BZ,1578374012,94,16.17,-88.94,69.8,2.04
479,Bintulu,75,MY,1578374010,70,3.17,113.03,86.0,3.36
480,Monrovia,2,LR,1578374012,87,6.33,-10.8,73.9,6.46
481,Kirakira,41,SB,1578374012,77,-10.46,161.92,83.41,11.32
482,Bud,75,NO,1578374012,81,62.91,6.91,46.4,21.92
483,Vaasa,90,FI,1578374012,93,63.1,21.62,39.2,14.99
484,Shakawe,62,BW,1578374012,79,-18.36,21.84,72.21,7.72
485,Road Town,1,VG,1578374012,78,18.42,-64.62,75.99,5.82
486,Jawhar,8,IN,1578374012,38,19.91,73.23,87.26,5.88
487,Avera,1,US,1578374013,66,33.19,-82.53,51.8,3.36
488,Amga,100,RU,1578374013,97,60.89,131.98,11.35,2.66
489,Sabha,0,LY,1578374013,71,27.03,14.43,40.08,8.88
490,Moron,2,HT,1578374013,78,18.56,-74.26,75.15,6.73
491,Sterling,1,US,1578373718,74,39.0,-77.4,37.99,3.11
492,Marzuq,7,YE,1578374013,60,14.4,46.47,65.5,2.86
493,Kaihua,69,CN,1578374013,90,29.14,118.41,54.88,4.52
494,Miraflores,40,PE,1578374013,71,-16.39,-71.52,55.4,3.36
495,Maragogi,18,BR,1578374013,75,-9.01,-35.22,79.57,9.75
496,Plastun,98,RU,1578374013,52,44.76,136.29,26.17,2.37
497,Toora-Khem,0,RU,1578374014,83,52.47,96.11,5.27,1.59
498,Sinjar,0,SY,1578374014,67,35.59,37.0,45.79,6.76
499,Rorvik,83,NO,1578374014,92,64.86,11.24,43.0,5.01
500,Isilkul,100,RU,1578374014,95,54.9,71.26,12.06,5.35
501,Seoul,90,KR,1578373849,100,37.57,126.98,46.4,4.7
502,Tawang,66,BT,1578374014,35,27.59,91.87,39.56,5.37
503,Atbasar,99,KZ,1578374014,93,51.81,68.36,16.95,2.82
504,Zabaykalsk,23,CN,1578374015,86,49.64,117.33,8.37,4.16
505,Comodoro Rivadavia,93,AR,1578374015,45,-45.87,-67.48,66.2,21.92
506,Boa Vista,0,BR,1578374015,65,2.82,-60.67,77.0,6.93
507,Camargo,17,MX,1578374015,37,27.69,-105.17,50.79,6.06
508,Valley Station,20,US,1578374015,71,33.35,-86.77,57.99,9.17
509,Bilibino,0,RU,1578374015,91,68.06,166.44,-20.85,2.71
510,Trinidad,87,BO,1578374015,94,-14.83,-64.9,75.07,5.44
511,Vao,100,EE,1578374015,97,59.1,26.19,36.97,8.72
512,Ucluelet,100,CA,1578373938,94,48.94,-125.55,46.99,5.28
513,Ghanzi,98,BW,1578374015,74,-21.7,21.65,71.82,8.25
514,Maltahohe,44,NA,1578374016,35,-24.83,16.98,71.17,8.59
515,Mayo,75,CA,1578374016,66,63.59,-135.9,-32.8,2.17
516,Qadirpur Ran,20,PK,1578374016,76,30.29,71.67,51.8,4.7
517,Natal,40,BR,1578373946,83,-5.81,-35.21,78.8,3.36
518,Makokou,21,GA,1578374016,84,0.56,12.85,71.51,2.37
519,Nijar,0,ES,1578374016,87,36.97,-2.21,44.6,3.36
520,Saint-Pierre,90,FR,1578374016,100,48.95,4.24,42.8,9.17
521,Thouars,90,FR,1578374016,100,46.98,-0.22,48.2,6.93
522,Kathu,100,ZA,1578374016,71,-27.7,23.05,69.01,11.59
523,Hongjiang,0,CN,1578374017,62,27.21,109.83,58.96,4.97
524,Newport,86,GB,1578374017,87,51.59,-3.0,46.99,11.41
525,Mount Gambier,40,AU,1578373812,34,-37.83,140.78,78.8,12.75
526,Ngunguru,93,NZ,1578374017,52,-35.62,174.5,66.0,14.0
